{
  "generatedAt": "2026-06-19T14:58:03.956Z",
  "activeSinceDate": "2026-02-19",
  "circles": [
    {
      "id": "evt-gglRA3rvBwzxmfY",
      "name": "LOGOS Ebonyi Circle: Digital Inclusion Initiative",
      "city": "Abakaliki",
      "country": "Nigeria",
      "lat": 6.337937999999999,
      "lng": 8.096192199999999,
      "eventUrl": "https://luma.com/9ngfu4xy"
    },
    {
      "id": "evt-dUqI7hTFOFXv6fm",
      "name": "Logos Ghana Circle -FREEDOM TO BUILD (Addressing Digital Illiteracy)",
      "city": "Accra",
      "country": "Ghana",
      "lat": 5.5580489,
      "lng": -0.1722225,
      "eventUrl": "https://luma.com/6efn6ggc"
    },
    {
      "id": "evt-g01laOxoY7nm8cK",
      "name": "LOGOS KHARTOUM CIRCLE : LOGOS & CORGI",
      "city": "Al Khurtum",
      "country": "Sudan",
      "lat": 15.5793684,
      "lng": 32.5678209,
      "eventUrl": "https://luma.com/bf745gkx"
    },
    {
      "id": "evt-f1GFSkPT0qhVqoH",
      "name": "Círculo Logos CdMx",
      "city": "Álvaro Obregón",
      "country": "Mexico",
      "lat": 19.354500599999998,
      "lng": -99.18553569999999,
      "eventUrl": "https://luma.com/sz3tao1f"
    },
    {
      "id": "evt-AFO54ArShYJhRym",
      "name": "LOGOS IFITE CIRCLE: LOGOS 101",
      "city": "Awka",
      "country": "Nigeria",
      "lat": 6.227901900000001,
      "lng": 7.0771608,
      "eventUrl": "https://luma.com/s9m8aa0s"
    },
    {
      "id": "evt-VnRzp8nl9YkLJ2e",
      "name": "Logos Circle Barcelona #8 (ft. Club Zcash Barcelona)",
      "city": "Barcelona",
      "country": "Spain",
      "lat": 41.4109567,
      "lng": 2.1912024999999997,
      "eventUrl": "https://luma.com/wqlrhskv"
    },
    {
      "id": "evt-BiZewAhEovVwACg",
      "name": "Logos Circle Benin City June 2026!",
      "city": "Benin City",
      "country": "Nigeria",
      "lat": 6.399878999999999,
      "lng": 5.608990599999999,
      "eventUrl": "https://luma.com/6oboctxr"
    },
    {
      "id": "evt-VJSGI1ZtyelVfjA",
      "name": "Logos Circle Berlin / Action Not Permission",
      "city": "Berlin",
      "country": "Germany",
      "lat": 52.4937094,
      "lng": 13.4296375,
      "eventUrl": "https://luma.com/logos-c1yv"
    },
    {
      "id": "evt-XkWeADtjx4FBNi9",
      "name": "Logos Circle: Los Angeles",
      "city": "Beverly Hills",
      "country": "USA",
      "lat": 34.0575715,
      "lng": -118.4060394,
      "eventUrl": "https://luma.com/9is05e3d"
    },
    {
      "id": "evt-2gN0VZjBSuvtXtG",
      "name": "Logos Circle - Boston",
      "city": "Boston",
      "country": "USA",
      "lat": 42.3492855,
      "lng": -71.078283,
      "eventUrl": "https://luma.com/7h4we06s"
    },
    {
      "id": "evt-Oo5KrW1ZqmpYrTe",
      "name": "Logos Circle BA #2",
      "city": "Buenos Aires",
      "country": "Argentina",
      "lat": -34.546455099999996,
      "lng": -58.4895881,
      "eventUrl": "https://luma.com/wpndjxtb"
    },
    {
      "id": "evt-GEEZsdvAK9uCUf2",
      "name": "Logos Circle Los Angeles",
      "city": "Burbank",
      "country": "USA",
      "lat": 34.1838751,
      "lng": -118.30961909999999,
      "eventUrl": "https://luma.com/yybbt8bd"
    },
    {
      "id": "evt-L0DcTqHhtjDF4o9",
      "name": "Logos Circle: Cape Town",
      "city": "Cape Town",
      "country": "South Africa",
      "lat": -33.9286734,
      "lng": 18.424128,
      "eventUrl": "https://luma.com/1wv9isy5"
    },
    {
      "id": "evt-DW5JfJmb2UcuHLm",
      "name": "Círculo Logos CdMx",
      "city": "Ciudad de México",
      "country": "Mexico",
      "lat": 19.371344999999998,
      "lng": -99.1822052,
      "eventUrl": "https://luma.com/8r8p8c2k"
    },
    {
      "id": "evt-oq9LllzkZUDTeZl",
      "name": "ETHCluj Pop-up Logos Circle: Coffee & Purpose",
      "city": "Cluj-Napoca",
      "country": "Romania",
      "lat": 46.7686345,
      "lng": 23.5717021,
      "eventUrl": "https://luma.com/nwgntu3l"
    },
    {
      "id": "evt-JjwGMNrIcq3ySW3",
      "name": "Logos Circle Enugu",
      "city": "Enugu",
      "country": "Nigeria",
      "lat": 6.4392245,
      "lng": 7.515774899999999,
      "eventUrl": "https://luma.com/w6qdvvmd"
    },
    {
      "id": "evt-UHKWWkBfBqrIVFL",
      "name": "LOGOS GIZA CIRCLE : GIZA CITY LAUNCH",
      "city": "First 6th of October",
      "country": "Egypt",
      "lat": 29.973153800000002,
      "lng": 31.0193506,
      "eventUrl": "https://luma.com/gd7x6dok"
    },
    {
      "id": "evt-S2w5Rz7DotJG511",
      "name": "Logos Circle Florianópolis #3",
      "city": "Florianópolis",
      "country": "Brazil",
      "lat": -27.599451199999997,
      "lng": -48.5487593,
      "eventUrl": "https://luma.com/ptpymrws"
    },
    {
      "id": "evt-NiRwm2bcyCo9gBM",
      "name": "Logos Circle Ibadan: The Beginning",
      "city": "Ibadan",
      "country": "Nigeria",
      "lat": 7.4217122,
      "lng": 3.9102413000000005,
      "eventUrl": "https://luma.com/u78zww8f"
    },
    {
      "id": "evt-KAn6JHs2xQs3i3R",
      "name": "Logos Circle : Vizag",
      "city": "Jct",
      "country": "India",
      "lat": 17.714859999999998,
      "lng": 83.30102409999999,
      "eventUrl": "https://luma.com/4110a7t8"
    },
    {
      "id": "evt-EsXUIkDrq77zxsV",
      "name": "Logos Circle Kampala",
      "city": "Kampala",
      "country": "Uganda",
      "lat": 0.3326347,
      "lng": 32.5685861,
      "eventUrl": "https://luma.com/fu0m2ar6"
    },
    {
      "id": "evt-Ezy47UfqdymyqV9",
      "name": "Logos Circle Kigali",
      "city": "Kigali",
      "country": "Rwanda",
      "lat": -1.958394,
      "lng": 30.0695959,
      "eventUrl": "https://luma.com/gwidhpz7"
    },
    {
      "id": "evt-EkHUWOfGFe53jX8",
      "name": "Privacy Tech: The NYC Circle (by Logos)",
      "city": "Kings County",
      "country": "USA",
      "lat": 40.705574299999995,
      "lng": -73.937135,
      "eventUrl": "https://luma.com/g2jcz31h"
    },
    {
      "id": "evt-1DL5ndM6yscUGHp",
      "name": "LOGOS ABEOKUTA CIRCLE:Tech Her Forward 2",
      "city": "Kobape",
      "country": "Nigeria",
      "lat": 7.0943011,
      "lng": 3.3963628999999997,
      "eventUrl": "https://luma.com/zggs7e5h"
    },
    {
      "id": "evt-ykXTzbT2FvYPM1W",
      "name": "Logos Circle Lisbon: Node Running Workshop",
      "city": "Lisboa",
      "country": "Portugal",
      "lat": 38.7215065,
      "lng": -9.1251438,
      "eventUrl": "https://luma.com/wqfifgw0"
    },
    {
      "id": "evt-mnCHvdkiXjmYAxK",
      "name": "Logos Circle London",
      "city": "London",
      "country": "UK",
      "lat": 51.511534,
      "lng": -0.08853319999999999,
      "eventUrl": "https://luma.com/qz43jrz4"
    },
    {
      "id": "evt-zx2lYVnbGc5ZLMr",
      "name": "Logos Circle: Los Angeles",
      "city": "Los Angeles",
      "country": "USA",
      "lat": 34.044711299999996,
      "lng": -118.2352851,
      "eventUrl": "https://luma.com/fvtjixui"
    },
    {
      "id": "evt-PAlFN69eXg94WXi",
      "name": "Impact Circle x Logos Circle Zanzibar",
      "city": "Magharibi",
      "country": "Tanzania",
      "lat": -6.2294393999999995,
      "lng": 39.2146609,
      "eventUrl": "https://luma.com/fddq09mc"
    },
    {
      "id": "evt-1hHpRP5vVe7fLC7",
      "name": "Logos Circle Nairobi",
      "city": "Nairobi",
      "country": "Kenya",
      "lat": -1.2994603999999998,
      "lng": 36.781061099999995,
      "eventUrl": "https://luma.com/l9jv04rc"
    },
    {
      "id": "evt-FaBHkAmrnKLJj9x",
      "name": "Logos Circle: Delhi-NCR, India",
      "city": "Noida",
      "country": "India",
      "lat": 28.583659500000003,
      "lng": 77.31660959999999,
      "eventUrl": "https://luma.com/qt0wqz6x"
    },
    {
      "id": "evt-jONlHzixXGkEqCR",
      "name": "Logos Circle Port Harcourt",
      "city": "Port Harcourt",
      "country": "Nigeria",
      "lat": 4.8205773999999995,
      "lng": 7.0020701999999995,
      "eventUrl": "https://luma.com/2cgbb0f1"
    },
    {
      "id": "evt-ze4hnZe4eugfnbE",
      "name": "Logos Circle: Porto",
      "city": "Porto",
      "country": "Portugal",
      "lat": 41.1563608,
      "lng": -8.6299837,
      "eventUrl": "https://luma.com/ukf8c19f"
    },
    {
      "id": "evt-g5NbHTnwEhEGGI2",
      "name": "Logos Circle Ruse #2",
      "city": "Ruse",
      "country": "Bulgaria",
      "lat": 43.849131500000006,
      "lng": 25.954425,
      "eventUrl": "https://luma.com/x208rk8x"
    },
    {
      "id": "evt-SAuBdr2GGoZfFkY",
      "name": "Logos Circle Uyo",
      "city": "Uyo",
      "country": "Nigeria",
      "lat": 5.0077222,
      "lng": 7.9578369,
      "eventUrl": "https://luma.com/bm8z3y7d"
    },
    {
      "id": "evt-rTfyujpXv8kjpfG",
      "name": "Logos Circle Delta - MEETUP 2.0",
      "city": "Warri",
      "country": "Nigeria",
      "lat": 5.5711927,
      "lng": 5.7828785,
      "eventUrl": "https://luma.com/i82fsfe4"
    },
    {
      "id": "evt-Tq18SSARmgya9zP",
      "name": "Logos Circle Liberland: Community Cleanup",
      "city": "Апатин",
      "country": "Serbia",
      "lat": 45.6778614,
      "lng": 18.974756199999998,
      "eventUrl": "https://luma.com/7jrjjqal"
    }
  ],
  "upcomingEvents": [
    {
      "id": "evt-AFO54ArShYJhRym",
      "name": "LOGOS IFITE CIRCLE: LOGOS 101",
      "city": "Awka",
      "country": "Nigeria",
      "startAt": "2026-06-19T12:00:00",
      "endAt": "2026-06-19T15:00:00",
      "eventUrl": "https://luma.com/s9m8aa0s",
      "coverUrl": "https://images.lumacdn.com/cdn-cgi/image/format=auto,fit=cover,quality=80,width=246,height=246/uploads/pg/79f8e954-6d30-458f-842b-97f389c095e6.jpg"
    },
    {
      "id": "evt-gglRA3rvBwzxmfY",
      "name": "LOGOS Ebonyi Circle: Digital Inclusion Initiative",
      "city": "Abakaliki",
      "country": "Nigeria",
      "startAt": "2026-06-20T11:00:00",
      "endAt": "2026-06-20T14:30:00",
      "eventUrl": "https://luma.com/9ngfu4xy",
      "coverUrl": "https://images.lumacdn.com/cdn-cgi/image/format=auto,fit=cover,quality=80,width=246,height=246/uploads/j1/53a2c6d5-8844-4614-a55d-6d3c68a883bf.jpg"
    },
    {
      "id": "evt-1DL5ndM6yscUGHp",
      "name": "LOGOS ABEOKUTA CIRCLE:Tech Her Forward 2",
      "city": "Kobape",
      "country": "Nigeria",
      "startAt": "2026-06-20T13:00:00",
      "endAt": "2026-06-20T17:00:00",
      "eventUrl": "https://luma.com/zggs7e5h",
      "coverUrl": "https://images.lumacdn.com/cdn-cgi/image/format=auto,fit=cover,quality=80,width=246,height=246/uploads/aa/4aab741b-2158-4158-a421-25b392c837b0.jpg"
    },
    {
      "id": "evt-g01laOxoY7nm8cK",
      "name": "LOGOS KHARTOUM CIRCLE : LOGOS & CORGI",
      "city": "Al Khurtum",
      "country": "Sudan",
      "startAt": "2026-06-20T14:00:00",
      "endAt": "2026-06-20T17:00:00",
      "eventUrl": "https://luma.com/bf745gkx",
      "coverUrl": "https://images.lumacdn.com/cdn-cgi/image/format=auto,fit=cover,quality=80,width=246,height=246/uploads/9w/779d1333-7f5d-462b-9ba5-aca9c82221dd.jpg"
    },
    {
      "id": "evt-GEEZsdvAK9uCUf2",
      "name": "Logos Circle Los Angeles",
      "city": "Burbank",
      "country": "USA",
      "startAt": "2026-06-24T01:30:00",
      "endAt": "2026-06-24T03:30:00",
      "eventUrl": "https://luma.com/yybbt8bd",
      "coverUrl": "https://images.lumacdn.com/cdn-cgi/image/format=auto,fit=cover,quality=80,width=246,height=246/uploads/uh/e39234fc-8134-414c-acd9-af9a3a6e53c6.png"
    },
    {
      "id": "evt-SAuBdr2GGoZfFkY",
      "name": "Logos Circle Uyo",
      "city": "Uyo",
      "country": "Nigeria",
      "startAt": "2026-06-25T10:30:00",
      "endAt": "2026-06-25T14:30:00",
      "eventUrl": "https://luma.com/bm8z3y7d",
      "coverUrl": "https://images.lumacdn.com/cdn-cgi/image/format=auto,fit=cover,quality=80,width=246,height=246/uploads/ba/f593d01f-4680-4087-a635-ce83d77a0bf6.jpg"
    },
    {
      "id": "evt-NiRwm2bcyCo9gBM",
      "name": "Logos Circle Ibadan: The Beginning",
      "city": "Ibadan",
      "country": "Nigeria",
      "startAt": "2026-06-27T09:30:00",
      "endAt": "2026-06-27T13:00:00",
      "eventUrl": "https://luma.com/u78zww8f",
      "coverUrl": "https://images.lumacdn.com/cdn-cgi/image/format=auto,fit=cover,quality=80,width=246,height=246/uploads/bv/3eb10268-c8aa-464d-8bc8-a0a04e5fce33.png"
    },
    {
      "id": "evt-jONlHzixXGkEqCR",
      "name": "Logos Circle Port Harcourt",
      "city": "Port Harcourt",
      "country": "Nigeria",
      "startAt": "2026-06-27T10:30:00",
      "endAt": "2026-06-27T14:00:00",
      "eventUrl": "https://luma.com/2cgbb0f1",
      "coverUrl": "https://images.lumacdn.com/cdn-cgi/image/format=auto,fit=cover,quality=80,width=246,height=246/uploads/dl/af4944ed-f548-47c0-93f7-c542b7226f7a.png"
    },
    {
      "id": "evt-mnCHvdkiXjmYAxK",
      "name": "Logos Circle London",
      "city": "London",
      "country": "UK",
      "startAt": "2026-06-29T17:00:00",
      "endAt": "2026-06-29T20:00:00",
      "eventUrl": "https://luma.com/qz43jrz4",
      "coverUrl": "https://images.lumacdn.com/cdn-cgi/image/format=auto,fit=cover,quality=80,width=246,height=246/uploads/6l/3cdc51f2-1061-40c8-aa55-ba748a43ec02.png"
    }
  ],
  "stats": [
    {
      "label": "Total Circle Events",
      "value": 163
    },
    {
      "label": "Distinct Cities",
      "value": 36
    },
    {
      "label": "Distinct Countries",
      "value": 28
    },
    {
      "label": "Upcoming Events",
      "value": 9
    }
  ]
}
