{
  "generatedAt": "2026-06-04T15:18:46.939Z",
  "activeSinceDate": "2026-02-04",
  "circles": [
    {
      "id": "evt-Aj8aH4CUwRMedaw",
      "name": "LOGOS EBONYI CIRCLE : SOLUTIONS TO DIGITAL ILLETERACY",
      "city": "Abakaliki",
      "country": "Nigeria",
      "lat": 6.337937999999999,
      "lng": 8.096192199999999,
      "eventUrl": "https://luma.com/nciejezz"
    },
    {
      "id": "evt-dUqI7hTFOFXv6fm",
      "name": "Logos Ghana Circle -FREEDOM TO BUILD (Addressing Digital Illiteracy)",
      "city": "Accra",
      "country": "Ghana",
      "lat": 5.5580489,
      "lng": -0.1722225,
      "eventUrl": "https://luma.com/6efn6ggc"
    },
    {
      "id": "evt-f1GFSkPT0qhVqoH",
      "name": "Círculo Logos CdMx",
      "city": "Álvaro Obregón",
      "country": "Mexico",
      "lat": 19.354500599999998,
      "lng": -99.18553569999999,
      "eventUrl": "https://luma.com/sz3tao1f"
    },
    {
      "id": "evt-9vPP1zPZctbLphi",
      "name": "Logos Circle Awka",
      "city": "Awka",
      "country": "Nigeria",
      "lat": 6.2254789,
      "lng": 7.0656642,
      "eventUrl": "https://luma.com/qjsesfxg"
    },
    {
      "id": "evt-VnRzp8nl9YkLJ2e",
      "name": "Logos Circle Barcelona #8 (ft. Club Zcash Barcelona)",
      "city": "Barcelona",
      "country": "Spain",
      "lat": 41.4109567,
      "lng": 2.1912024999999997,
      "eventUrl": "https://luma.com/wqlrhskv"
    },
    {
      "id": "evt-purFU2uRYrib635",
      "name": "Logos Circle Benin City May 2026",
      "city": "Benin City",
      "country": "Nigeria",
      "lat": 6.399878999999999,
      "lng": 5.608990599999999,
      "eventUrl": "https://luma.com/wpkup0kf"
    },
    {
      "id": "evt-VJSGI1ZtyelVfjA",
      "name": "Logos Circle Berlin / Action Not Permission",
      "city": "Berlin",
      "country": "Germany",
      "lat": 52.4937094,
      "lng": 13.4296375,
      "eventUrl": "https://luma.com/logos-c1yv"
    },
    {
      "id": "evt-XkWeADtjx4FBNi9",
      "name": "Logos Circle: Los Angeles",
      "city": "Beverly Hills",
      "country": "USA",
      "lat": 34.0575715,
      "lng": -118.4060394,
      "eventUrl": "https://luma.com/9is05e3d"
    },
    {
      "id": "evt-2gN0VZjBSuvtXtG",
      "name": "Logos Circle - Boston",
      "city": "Boston",
      "country": "USA",
      "lat": 42.3492855,
      "lng": -71.078283,
      "eventUrl": "https://luma.com/7h4we06s"
    },
    {
      "id": "evt-Oo5KrW1ZqmpYrTe",
      "name": "Logos Circle BA #2",
      "city": "Buenos Aires",
      "country": "Argentina",
      "lat": -34.546455099999996,
      "lng": -58.4895881,
      "eventUrl": "https://luma.com/wpndjxtb"
    },
    {
      "id": "evt-L0DcTqHhtjDF4o9",
      "name": "Logos Circle: Cape Town",
      "city": "Cape Town",
      "country": "South Africa",
      "lat": -33.9286734,
      "lng": 18.424128,
      "eventUrl": "https://luma.com/1wv9isy5"
    },
    {
      "id": "evt-DW5JfJmb2UcuHLm",
      "name": "Círculo Logos CdMx",
      "city": "Ciudad de México",
      "country": "Mexico",
      "lat": 19.371344999999998,
      "lng": -99.1822052,
      "eventUrl": "https://luma.com/8r8p8c2k"
    },
    {
      "id": "evt-oq9LllzkZUDTeZl",
      "name": "ETHCluj Pop-up Logos Circle: Coffee & Purpose",
      "city": "Cluj-Napoca",
      "country": "Romania",
      "lat": 46.7686345,
      "lng": 23.5717021,
      "eventUrl": "https://luma.com/nwgntu3l"
    },
    {
      "id": "evt-JjwGMNrIcq3ySW3",
      "name": "Logos Circle Enugu",
      "city": "Enugu",
      "country": "Nigeria",
      "lat": 6.4392245,
      "lng": 7.515774899999999,
      "eventUrl": "https://luma.com/w6qdvvmd"
    },
    {
      "id": "evt-UHKWWkBfBqrIVFL",
      "name": "LOGOS GIZA CIRCLE : GIZA CITY LAUNCH",
      "city": "First 6th of October",
      "country": "Egypt",
      "lat": 29.973153800000002,
      "lng": 31.0193506,
      "eventUrl": "https://luma.com/gd7x6dok"
    },
    {
      "id": "evt-S2w5Rz7DotJG511",
      "name": "Logos Circle Florianópolis #3",
      "city": "Florianópolis",
      "country": "Brazil",
      "lat": -27.599451199999997,
      "lng": -48.5487593,
      "eventUrl": "https://luma.com/ptpymrws"
    },
    {
      "id": "evt-uW8caaCBmilfUzR",
      "name": "Logos Circle Prague #4",
      "city": "Hlavní město Praha",
      "country": "Czechia",
      "lat": 50.103352699999995,
      "lng": 14.450541099999997,
      "eventUrl": "https://luma.com/ogpuxp1q"
    },
    {
      "id": "evt-NiRwm2bcyCo9gBM",
      "name": "Logos Circle Ibadan: The Beginning",
      "city": "Ibadan",
      "country": "Nigeria",
      "lat": 7.4217122,
      "lng": 3.9102413000000005,
      "eventUrl": "https://luma.com/u78zww8f"
    },
    {
      "id": "evt-KAn6JHs2xQs3i3R",
      "name": "Logos Circle : Vizag",
      "city": "Jct",
      "country": "India",
      "lat": 17.714859999999998,
      "lng": 83.30102409999999,
      "eventUrl": "https://luma.com/4110a7t8"
    },
    {
      "id": "evt-EsXUIkDrq77zxsV",
      "name": "Logos Circle Kampala",
      "city": "Kampala",
      "country": "Uganda",
      "lat": 0.3326347,
      "lng": 32.5685861,
      "eventUrl": "https://luma.com/fu0m2ar6"
    },
    {
      "id": "evt-Ezy47UfqdymyqV9",
      "name": "Logos Circle Kigali",
      "city": "Kigali",
      "country": "Rwanda",
      "lat": -1.958394,
      "lng": 30.0695959,
      "eventUrl": "https://luma.com/gwidhpz7"
    },
    {
      "id": "evt-EkHUWOfGFe53jX8",
      "name": "Privacy Tech: The NYC Circle (by Logos)",
      "city": "Kings County",
      "country": "USA",
      "lat": 40.705574299999995,
      "lng": -73.937135,
      "eventUrl": "https://luma.com/g2jcz31h"
    },
    {
      "id": "evt-mdwrIPypF1TRIXN",
      "name": "LOGOS ABEOKUTA CIRCLE: WINNABLE ISSUE",
      "city": "Kobape",
      "country": "Nigeria",
      "lat": 7.0943011,
      "lng": 3.3963628999999997,
      "eventUrl": "https://luma.com/v1zikazd"
    },
    {
      "id": "evt-uykzcQGU5sPscJF",
      "name": "Logos Circle Lagos",
      "city": "Lagos",
      "country": "Nigeria",
      "lat": 6.4301765,
      "lng": 3.4196096,
      "eventUrl": "https://luma.com/ukr8vrht"
    },
    {
      "id": "evt-ykXTzbT2FvYPM1W",
      "name": "Logos Circle Lisbon: Node Running Workshop",
      "city": "Lisboa",
      "country": "Portugal",
      "lat": 38.7215065,
      "lng": -9.1251438,
      "eventUrl": "https://luma.com/wqfifgw0"
    },
    {
      "id": "evt-wiTTEz0y41loPCl",
      "name": "Logos Circle London",
      "city": "London",
      "country": "UK",
      "lat": 51.511534,
      "lng": -0.08853319999999999,
      "eventUrl": "https://luma.com/logos-london"
    },
    {
      "id": "evt-zx2lYVnbGc5ZLMr",
      "name": "Logos Circle: Los Angeles",
      "city": "Los Angeles",
      "country": "USA",
      "lat": 34.044711299999996,
      "lng": -118.2352851,
      "eventUrl": "https://luma.com/fvtjixui"
    },
    {
      "id": "evt-1hHpRP5vVe7fLC7",
      "name": "Logos Circle Nairobi",
      "city": "Nairobi",
      "country": "Kenya",
      "lat": -1.2994603999999998,
      "lng": 36.781061099999995,
      "eventUrl": "https://luma.com/l9jv04rc"
    },
    {
      "id": "evt-FaBHkAmrnKLJj9x",
      "name": "Logos Circle: Delhi-NCR, India",
      "city": "Noida",
      "country": "India",
      "lat": 28.583659500000003,
      "lng": 77.31660959999999,
      "eventUrl": "https://luma.com/qt0wqz6x"
    },
    {
      "id": "evt-Ba7TSps3yD4tpaQ",
      "name": "Logos Circle: Port Harcourt",
      "city": "Port Harcourt",
      "country": "Nigeria",
      "lat": 4.8205773999999995,
      "lng": 7.0020701999999995,
      "eventUrl": "https://luma.com/c805ajvr"
    },
    {
      "id": "evt-d8CHxCRMmgo1zpj",
      "name": "Logos Circle: Porto",
      "city": "Porto",
      "country": "Portugal",
      "lat": 41.1563608,
      "lng": -8.6299837,
      "eventUrl": "https://luma.com/23dzukhi"
    },
    {
      "id": "evt-g5NbHTnwEhEGGI2",
      "name": "Logos Circle Ruse #2",
      "city": "Ruse",
      "country": "Bulgaria",
      "lat": 43.849131500000006,
      "lng": 25.954425,
      "eventUrl": "https://luma.com/x208rk8x"
    },
    {
      "id": "evt-7vfZrbrShy50cog",
      "name": "Logos Circle: UYO",
      "city": "Uyo",
      "country": "Nigeria",
      "lat": 5.0077222,
      "lng": 7.9578369,
      "eventUrl": "https://luma.com/keag0kha"
    },
    {
      "id": "evt-rTfyujpXv8kjpfG",
      "name": "Logos Circle Delta - MEETUP 2.0",
      "city": "Warri",
      "country": "Nigeria",
      "lat": 5.5711927,
      "lng": 5.7828785,
      "eventUrl": "https://luma.com/i82fsfe4"
    },
    {
      "id": "evt-Tq18SSARmgya9zP",
      "name": "Logos Circle Liberland: Community Cleanup",
      "city": "Апатин",
      "country": "Serbia",
      "lat": 45.6778614,
      "lng": 18.974756199999998,
      "eventUrl": "https://luma.com/7jrjjqal"
    }
  ],
  "upcomingEvents": [
    {
      "id": "evt-GlqtoA7xehpvfuf",
      "name": "Logos Circle Ilorin May Edition",
      "city": "",
      "country": "",
      "startAt": "2026-06-04T14:00:00",
      "endAt": "2026-06-04T17:00:00",
      "eventUrl": "https://luma.com/svjyqwu9",
      "coverUrl": "https://images.lumacdn.com/cdn-cgi/image/format=auto,fit=cover,quality=80,width=246,height=246/event-covers/zb/8bcd36d4-d687-4ad6-aa33-af5cc28fd7d8.png"
    },
    {
      "id": "evt-9vPP1zPZctbLphi",
      "name": "Logos Circle Awka",
      "city": "Awka",
      "country": "Nigeria",
      "startAt": "2026-06-06T11:00:00",
      "endAt": "2026-06-06T14:00:00",
      "eventUrl": "https://luma.com/qjsesfxg",
      "coverUrl": "https://images.lumacdn.com/cdn-cgi/image/format=auto,fit=cover,quality=80,width=246,height=246/uploads/zh/f9ec8936-df09-4d96-8d71-60b812108cf8.jpg"
    },
    {
      "id": "evt-KAn6JHs2xQs3i3R",
      "name": "Logos Circle : Vizag",
      "city": "Jct",
      "country": "India",
      "startAt": "2026-06-06T11:30:00",
      "endAt": "2026-06-06T14:00:00",
      "eventUrl": "https://luma.com/4110a7t8",
      "coverUrl": "https://images.lumacdn.com/cdn-cgi/image/format=auto,fit=cover,quality=80,width=246,height=246/uploads/wr/889dbec8-6a28-4435-b1aa-8dc38db2d145.png"
    },
    {
      "id": "evt-ykXTzbT2FvYPM1W",
      "name": "Logos Circle Lisbon: Node Running Workshop",
      "city": "Lisboa",
      "country": "Portugal",
      "startAt": "2026-06-10T18:00:00",
      "endAt": "2026-06-10T20:00:00",
      "eventUrl": "https://luma.com/wqfifgw0",
      "coverUrl": "https://images.lumacdn.com/cdn-cgi/image/format=auto,fit=cover,quality=80,width=246,height=246/uploads/5e/b8f113a0-068a-4aa4-b45d-76a6453e583d.png"
    },
    {
      "id": "evt-VJSGI1ZtyelVfjA",
      "name": "Logos Circle Berlin / Action Not Permission",
      "city": "Berlin",
      "country": "Germany",
      "startAt": "2026-06-18T11:00:00",
      "endAt": "2026-06-18T18:30:00",
      "eventUrl": "https://luma.com/logos-c1yv",
      "coverUrl": "https://images.lumacdn.com/cdn-cgi/image/format=auto,fit=cover,quality=80,width=246,height=246/uploads/v7/9a7ea0cd-e577-40ae-8856-64a94b9809a9.png"
    },
    {
      "id": "evt-NiRwm2bcyCo9gBM",
      "name": "Logos Circle Ibadan: The Beginning",
      "city": "Ibadan",
      "country": "Nigeria",
      "startAt": "2026-06-27T09:30:00",
      "endAt": "2026-06-27T13:00:00",
      "eventUrl": "https://luma.com/u78zww8f",
      "coverUrl": "https://images.lumacdn.com/cdn-cgi/image/format=auto,fit=cover,quality=80,width=246,height=246/uploads/bv/3eb10268-c8aa-464d-8bc8-a0a04e5fce33.png"
    }
  ],
  "stats": [
    {
      "label": "Total Circle Events",
      "value": 152
    },
    {
      "label": "Distinct Cities",
      "value": 35
    },
    {
      "label": "Distinct Countries",
      "value": 27
    },
    {
      "label": "Upcoming Events",
      "value": 6
    }
  ]
}
